[
  {
    "name": "Hotel Le Meurice",
    "latitude": 48.8656,
    "longitude": 2.3266,
    "address": "228 Rue de Rivoli, 75001 Paris, France",
    "country": "France",
    "price_per_night": 450.00
  },
  {
    "name": "Hotel Ritz Paris",
    "latitude": 48.8686,
    "longitude": 2.3295,
    "address": "15 Place Vendôme, 75001 Paris, France",
    "country": "France",
    "price_per_night": 1200.00
  },
  {
    "name": "Le Bristol Paris",
    "latitude": 48.8704,
    "longitude": 2.3125,
    "address": "112 Rue du Faubourg Saint-Honoré, 75008 Paris, France",
    "country": "France",
    "price_per_night": 850.00
  },
  {
    "name": "Hotel Eiffel Blomet",
    "latitude": 48.8418,
    "longitude": 2.3052,
    "address": "78 Rue Blomet, 75015 Paris, France",
    "country": "France",
    "price_per_night": 220.00
  },
  {
    "name": "Hotel La Comtesse",
    "latitude": 48.8546,
    "longitude": 2.3061,
    "address": "29 Avenue de Tourville, 75007 Paris, France",
    "country": "France",
    "price_per_night": 320.00
  },
  {
    "name": "Hotel des Arts Montmartre",
    "latitude": 48.8854,
    "longitude": 2.3374,
    "address": "5 Rue Tholozé, 75018 Paris, France",
    "country": "France",
    "price_per_night": 180.00
  },
  {
    "name": "Hotel le Relais Saint Germain",
    "latitude": 48.8526,
    "longitude": 2.3379,
    "address": "9 Carrefour de l'Odéon, 75006 Paris, France",
    "country": "France",
    "price_per_night": 400.00
  },
  {
    "name": "Hotel Plaza Athénée",
    "latitude": 48.8667,
    "longitude": 2.3053,
    "address": "25 Avenue Montaigne, 75008 Paris, France",
    "country": "France",
    "price_per_night": 1000.00
  },
  {
    "name": "Hotel The Hoxton",
    "latitude": 48.8688,
    "longitude": 2.3469,
    "address": "30-32 Rue du Sentier, 75002 Paris, France",
    "country": "France",
    "price_per_night": 275.00
  },
  {
    "name": "Maison Souquet",
    "latitude": 48.8832,
    "longitude": 2.3311,
    "address": "10 Rue de Bruxelles, 75009 Paris, France",
    "country": "France",
    "price_per_night": 650.00
  },
  {
    "name": "Hotel Arts Barcelona",
    "latitude": 41.3879,
    "longitude": 2.1958,
    "address": "Carrer de la Marina, 19, 21, 08005 Barcelona, Spain",
    "country": "Spain",
    "price_per_night": 850.00
  },
  {
    "name": "Majestic Hotel & Spa Barcelona",
    "latitude": 41.3921,
    "longitude": 2.1634,
    "address": "Passeig de Gràcia, 68, 08007 Barcelona, Spain",
    "country": "Spain",
    "price_per_night": 650.00
  },
  {
    "name": "Hotel Rialto",
    "latitude": 45.4345,
    "longitude": 12.3387,
    "address": "Riva del Ferro, 5149, 30124 Venice, Italy",
    "country": "Italy",
    "price_per_night": 700.00
  },
  {
    "name": "The Gritti Palace",
    "latitude": 45.4315,
    "longitude": 12.3347,
    "address": "Campo Santa Maria del Giglio, 30124 Venice, Italy",
    "country": "Italy",
    "price_per_night": 1200.00
  },
  {
    "name": "Rome Cavalieri",
    "latitude": 41.9157,
    "longitude": 12.4473,
    "address": "Via Alberto Cadlolo, 101, 00136 Rome, Italy",
    "country": "Italy",
    "price_per_night": 1000.00
  },
  {
    "name": "Hotel de Russie",
    "latitude": 41.9089,
    "longitude": 12.4773,
    "address": "Via del Babuino, 9, 00187 Rome, Italy",
    "country": "Italy",
    "price_per_night": 900.00
  }
]
